{"index.css":"/* css */","index.html":"<!DOCTYPE html>\r\n<html>\r\n<head>\r\n    <title>Syncfusion React Sample</title>\r\n    <meta charset=\"utf-8\" />\r\n    <meta name=\"viewport\" content=\"width=device-width, initial-scale=1.0, user-scalable=no\" />\r\n    <meta http-equiv=\"x-ua-compatible\" content=\"ie=edge\">\r\n    <meta name=\"description\" content=\"Syncfusion React UI Components\" />\r\n    <meta name=\"author\" content=\"Syncfusion\" />\r\n    <link href=\"////npmci.syncfusion.com/packages/development/{{theme}}.css\" rel=\"stylesheet\">\r\n    <link href=\"https://maxcdn.bootstrapcdn.com/bootstrap/3.3.7/css/bootstrap.min.css\" rel=\"stylesheet\" />\r\n</head>\r\n\r\n<body class=\"{{theme}}\">\r\n    <div id='sample'>\r\n</body>\r\n</html>\r\n","index.js":"import { render } from 'react-dom';\nimport './index.css';\n/**\r\n * Projection sample\r\n */\r\nimport * as React from \"react\";\r\nimport { MapAjax } from '@syncfusion/ej2-maps';\r\nimport { MapsComponent, Inject, LayersDirective, LayerDirective, Marker, MarkersDirective, MarkerDirective, Zoom, MapsTooltip } from '@syncfusion/ej2-react-maps';\r\nimport { SampleBase } from './sample-base';\r\nconst SAMPLE_CSS = `\r\n    .control-fluid {\r\n\t\tpadding: 0px !important;\r\n    }`;\r\nlet markers1 = [\r\n    {\r\n        longitude: -96.9412994, latitude: 36.0446575, name: 'Mehan'\r\n    },\r\n    {\r\n        longitude: -99.0925598, latitude: 35.0299964, name: 'Hobart'\r\n    },\r\n    {\r\n        longitude: -98.4924316, latitude: 33.9137338, name: 'Wichita Falls'\r\n    },\r\n    {\r\n        longitude: -98.9675903, latitude: 35.5154609, name: 'Clinton'\r\n    },\r\n    {\r\n        longitude: -98.923645, latitude: 36.1478557, name: 'Seiling'\r\n    },\r\n    {\r\n        longitude: -99.2985535, latitude: 36.1500735, name: 'Vici'\r\n    },\r\n    {\r\n        longitude: -95.3173828, latitude: 36.3084855, name: 'Pryor'\r\n    },\r\n    {\r\n        longitude: -96.7524719, latitude: 34.9596836, name: 'Konawa'\r\n    },\r\n    {\r\n        longitude: -101.9450281, latitude: 35.2018863, name: 'Amarillo'\r\n    },\r\n    {\r\n        longitude: -98.0971969, latitude: 35.5514624, name: 'El Reno'\r\n    },\r\n    {\r\n        longitude: -97.8432238, latitude: 35.5150073, name: 'Yukon'\r\n    },\r\n    {\r\n        longitude: -97.2557752, latitude: 35.4933852, name: 'Harrah'\r\n    },\r\n    {\r\n        longitude: -97.1019391, latitude: 35.3620257, name: 'Shawnee'\r\n    },\r\n    {\r\n        longitude: -97.072877, latitude: 35.6853011, name: 'Wellston'\r\n    },\r\n    {\r\n        longitude: -96.2093353, latitude: 36.133417, name: 'Lotsee'\r\n    },\r\n    {\r\n        longitude: -96.3077788, latitude: 36.1879088, name: 'Sand Springs'\r\n    },\r\n    {\r\n        longitude: -98.7075369, latitude: 35.931371, name: 'Oakwood'\r\n    },\r\n    {\r\n        longitude: -98.0003367, latitude: 35.0403272, name: 'Chickasha'\r\n    },\r\n    {\r\n        longitude: -97.1836494, latitude: 36.4595554, name: 'Red Rock'\r\n    },\r\n    {\r\n        longitude: -96.7148021, latitude: 35.4859752, name: 'Prague'\r\n    },\r\n    {\r\n        longitude: -97.9339651, latitude: 36.1022835, name: 'Hennessey'\r\n    },\r\n    {\r\n        longitude: -96.2595621, latitude: 35.2453183, name: 'Wetumka'\r\n    },\r\n    {\r\n        longitude: -97.4499583, latitude: 35.0304344, name: 'Purcell'\r\n    },\r\n    {\r\n        longitude: -96.1059044, latitude: 35.605942, name: 'Okmulgee'\r\n    },\r\n    {\r\n        longitude: -97.9684792, latitude: 35.8439429, name: 'Kingfisher'\r\n    },\r\n    {\r\n        longitude: -95.7691956, latitude: 34.9332303, name: 'McAlester'\r\n    },\r\n    {\r\n        longitude: -96.1289978, latitude: 34.3853794, name: 'Atoka'\r\n    },\r\n    {\r\n        longitude: -97.1191406, latitude: 34.5042932, name: 'Davis'\r\n    },\r\n    {\r\n        longitude: -98.0310059, latitude: 37.1537496, name: 'Anthony'\r\n    },\r\n    {\r\n        longitude: -98.3564758, latitude: 36.7542898, name: 'Cherokee'\r\n    },\r\n    {\r\n        longitude: -95.3695679, latitude: 35.7476268, name: 'Muskogee'\r\n    },\r\n    {\r\n        longitude: -95.582428, latitude: 35.2871057, name: 'Eufaula'\r\n    },\r\n    {\r\n        longitude: -96.9412994, latitude: 36.0446575, name: 'Mehan'\r\n    }\r\n];\r\nlet marker2 = [\r\n    { latitude: 35.6379762, longitude: -97.4823761 },\r\n    { latitude: 35.5676663, longitude: -97.5128031 },\r\n    { latitude: 35.5412361, longitude: -97.601552 },\r\n    { latitude: 35.5451471, longitude: -97.5661039 },\r\n    { latitude: 35.5120376, longitude: -97.5918531 },\r\n    { latitude: 35.5112516, longitude: -97.5843 },\r\n    { latitude: 35.4737072, longitude: -97.5158072 },\r\n    { latitude: 35.4575239, longitude: -97.6179457 },\r\n    { latitude: 35.4362676, longitude: -97.5998354 },\r\n    { latitude: 35.3954872, longitude: -97.5962305 },\r\n    { latitude: 35.3492258, longitude: -97.5294113 },\r\n    { latitude: 35.5260794, longitude: -98.7032318 },\r\n    { latitude: 34.7827916, longitude: -98.3001709 },\r\n    { latitude: 34.0793936, longkitude: -98.5583496 },\r\n    { latitude: 36.1434199, longitude: -97.0690155 },\r\n    { latitude: 36.0170318, longitude: -96.11063 },\r\n    { latitude: 36.1608845, longitude: -96.0205078 },\r\n    { latitude: 36.1323292, longitude: -95.9624863 },\r\n    { latitude: 36.1317746, longitude: -95.9046364 },\r\n    { latitude: 36.1604341, longitude: -95.8885002 },\r\n];\r\nexport class HighlightMaps extends SampleBase {\r\n    render() {\r\n        return (<div className='control-panel'>\r\n                <style>\r\n                    {SAMPLE_CSS}\r\n                    \r\n                </style>\r\n                <div className='control-section row'>\r\n                <div style={{ width: 350, margin: 'auto', paddingBottom: 20 }}>\r\n                          <img src=\"////npmci.syncfusion.com/development/react/demos/src/maps/images/atm.png\" alt=\"ATM indication\" style={{ width: 25, height: 25, float: 'left' }}>\r\n                          </img>\r\n                          <div id=\"sampletitle\" style={{ fontWeight: 400, paddingLeft: 30, fontSize: 18 }}>ATM locations in Oklahoma, USA</div>\r\n                    </div>\r\n\r\n                    <div className='col-md-12'>\r\n                        <MapsComponent id=\"maps\" loaded={this.onMapsLoad.bind(this)} load={this.load} ref={m => this.mapInstance = m} zoomSettings={{\r\n            enable: false,\r\n            zoomFactor: 2\r\n        }} centerPosition={{\r\n            latitude: 35.65,\r\n            longitude: -97.3\r\n        }}>\r\n                            <Inject services={[Zoom, Marker, MapsTooltip]}/>\r\n                            <LayersDirective>\r\n                                <LayerDirective shapeData={new MapAjax('////npmci.syncfusion.com/development/react/demos/src/maps/map-data/okalahoma.json')} shapeSettings={{\r\n            fill: '#F5F5F5',\r\n            border: { color: '#EEDA97', width: 1 }\r\n        }}>\r\n                               <MarkersDirective>\r\n                               <MarkerDirective visible={true} width={20} height={20} shape='Image' imageUrl='////npmci.syncfusion.com/development/react/demos/src/maps/images/ballon.png' fill='#000080' border={{ color: 'transparent' }} dataSource={marker2} tooltipSettings={{\r\n            visible: true,\r\n            valuePath: 'title'\r\n        }}>\r\n                               </MarkerDirective>\r\n                               <MarkerDirective visible={true} shape='Circle' width={130} height={130} fill='rgba(70,130,180,0.3)' dataSource={[{ latitude: 35.5112516, longitude: -97.5843, text: '10/18 ATMs' },]} tooltipSettings={{ visible: true, valuePath: 'text' }} border={{ color: 'transparent' }}>\r\n                                   </MarkerDirective>\r\n                                   <MarkerDirective visible={true} shape='Circle' width={100} height={100} fill='rgba(70,130,180,0.3)' dataSource={[{ latitude: 36.0808845, longitude: -96.0205078, text: '5/18 ATMs' }]} tooltipSettings={{ visible: true, valuePath: 'text' }} border={{ color: 'transparent' }}>\r\n                                   </MarkerDirective>\r\n                               <MarkerDirective visible={true} template='<div style=\"color: black;\">{{:name}}</div>' dataSource={markers1}></MarkerDirective>\r\n                           </MarkersDirective>\r\n                                </LayerDirective>\r\n                            </LayersDirective>\r\n                        </MapsComponent>\r\n                    </div>\r\n                </div>\r\n                \r\n                <div style={{ float: 'right', marginright: '10px' }}>Source: \r\n       <a href=\"https://www.google.co.in/maps/search/atm+in+oklahoma/@35.3864432,-98.2888719,8z/data=!3m1!4b1\" target=\"_blank\">www.google.co.in/maps</a>\r\n    </div>\r\n            </div>);\r\n    }\r\n    onMapsLoad(args) {\r\n        let maps = document.getElementById('maps');\r\n        maps.setAttribute('title', '');\r\n    }\r\n    ;\r\n}\r\n\nrender(<HighlightMaps />, document.getElementById('sample'));","sample-base.js":"import * as React from 'react';\n    {{ripple}}\n    export class SampleBase extends React.PureComponent {\n        rendereComplete() {\n            /**custom render complete function */\n        }\n        componentDidMount() {\n            setTimeout(() => {\n            this.rendereComplete();\n        });\n          }\n        }\n    ","dependencies":"{\"@syncfusion/ej2\": \"*\",\"@syncfusion/ej2-react-base\": \"*\",\"@syncfusion/ej2-react-buttons\": \"*\",\"@syncfusion/ej2-react-calendars\": \"*\",\"@syncfusion/ej2-react-charts\": \"*\",\"@syncfusion/ej2-react-diagrams\": \"*\",\"@syncfusion/ej2-react-circulargauge\": \"*\",\"@syncfusion/ej2-react-dropdowns\": \"*\",\"@syncfusion/ej2-react-filemanager\": \"*\",\"@syncfusion/ej2-react-grids\": \"*\",\"@syncfusion/ej2-react-inputs\": \"*\",\"@syncfusion/ej2-react-layouts\": \"*\",\"@syncfusion/ej2-react-lineargauge\": \"*\",\"@syncfusion/ej2-react-barcode-generator\": \"*\",\"@syncfusion/ej2-react-lists\": \"*\",\"@syncfusion/ej2-react-maps\": \"*\",\"@syncfusion/ej2-react-treemap\": \"*\",\"@syncfusion/ej2-react-heatmap\": \"*\",\"@syncfusion/ej2-react-navigations\": \"*\",\"@syncfusion/ej2-react-notifications\": \"*\",\"@syncfusion/ej2-react-inplace-editor\": \"*\",\"@syncfusion/ej2-react-treegrid\": \"*\",\"@syncfusion/ej2-react-popups\": \"*\",\"@syncfusion/ej2-react-schedule\": \"*\",\"@syncfusion/ej2-react-splitbuttons\": \"*\",\"@syncfusion/ej2-react-documenteditor\": \"*\",\"@syncfusion/ej2-react-richtexteditor\": \"*\",\"@syncfusion/ej2-react-pivotview\": \"*\",\"@syncfusion/ej2-react-pdfviewer\": \"*\",\"@syncfusion/ej2-react-querybuilder\": \"*\",\"@syncfusion/ej2-react-gantt\": \"*\",\"@syncfusion/ej2-react-spreadsheet\": \"*\"}"}